[
    {
        "X": "-9.053499750875776",
        "Y": "53.273082469830108",
        "OBJECTID": "1",
        "NAME": "Market St",
        "TYPE": "Pay/Surface Carpark",
        "NO_SPACES": "88",
        "Lat": "53.273",
        "Long": "-9.054",
        "EastITM": "529691.955",
        "NorthITM": "725294.803",
        "EastIG": "129726.012",
        "NorthIG": "225265.639"
    },
    {
        "X": "-9.054503903368941",
        "Y": "53.270521155078541",
        "OBJECTID": "2",
        "NAME": "Jurys Hotel",
        "TYPE": "Multistorey Carpark",
        "NO_SPACES": "348",
        "Lat": "53.271",
        "Long": "-9.055",
        "EastITM": "529620.784",
        "NorthITM": "725010.839",
        "EastIG": "129654.828",
        "NorthIG": "224981.613"
    },
    {
        "X": "-9.056677150391952",
        "Y": "53.273979585968917",
        "OBJECTID": "3",
        "NAME": "Gaol Rd / Cathedral",
        "TYPE": "Pay/Surface Carpark",
        "NO_SPACES": "161",
        "Lat": "53.274",
        "Long": "-9.057",
        "EastITM": "529481.534",
        "NorthITM": "725397.739",
        "EastIG": "129515.546",
        "NorthIG": "225368.595"
    },
    {
        "X": "-9.051106477936496",
        "Y": "53.26948802216706",
        "OBJECTID": "4",
        "NAME": "Harbour",
        "TYPE": "Pay/Surface Carpark",
        "NO_SPACES": " ",
        "Lat": "53.27",
        "Long": "-9.052",
        "EastITM": "529845.677",
        "NorthITM": "724892.562",
        "EastIG": "129879.77",
        "NorthIG": "224863.312"
    },
    {
        "X": "-9.049571233949168",
        "Y": "53.274731667902756",
        "OBJECTID": "5",
        "NAME": "Eyre Square Centre",
        "TYPE": "Multistorey Carpark",
        "NO_SPACES": "452",
        "Lat": "53.275",
        "Long": "-9.05",
        "EastITM": "529956.637",
        "NorthITM": "725474.425",
        "EastIG": "129990.751",
        "NorthIG": "225445.3"
    },
    {
        "X": "-9.042891390678891",
        "Y": "53.273523509119734",
        "OBJECTID": "6",
        "NAME": "Radisson Hotel",
        "TYPE": "Multistorey Carpark",
        "NO_SPACES": "260",
        "Lat": "53.274",
        "Long": "-9.043",
        "EastITM": "530400.129",
        "NorthITM": "725333.491",
        "EastIG": "130434.34",
        "NorthIG": "225304.339"
    },
    {
        "X": "-9.045248691741552",
        "Y": "53.273548515714353",
        "OBJECTID": "7",
        "NAME": "Fairgreen House",
        "TYPE": "Multistorey Carpark",
        "NO_SPACES": "400",
        "Lat": "53.274",
        "Long": "-9.046",
        "EastITM": "530242.966",
        "NorthITM": "725338.57",
        "EastIG": "130277.142",
        "NorthIG": "225309.419"
    },
    {
        "X": "-9.048590141985041",
        "Y": "53.270976202486978",
        "OBJECTID": "8",
        "NAME": "Docks",
        "TYPE": "Pay/Surface Carpark",
        "NO_SPACES": "89",
        "Lat": "53.271",
        "Long": "-9.049",
        "EastITM": "530015.932",
        "NorthITM": "725055.66",
        "EastIG": "130050.06",
        "NorthIG": "225026.446"
    },
    {
        "X": "-9.049922268143415",
        "Y": "53.276011826480037",
        "OBJECTID": "9",
        "NAME": "Corrib Centre",
        "TYPE": "Multistorey Carpark",
        "NO_SPACES": "580",
        "Lat": "53.276",
        "Long": "-9.051",
        "EastITM": "529935.321",
        "NorthITM": "725617.189",
        "EastIG": "129969.43",
        "NorthIG": "225588.095"
    },
    {
        "X": "-9.050566329174679",
        "Y": "53.278377120598336",
        "OBJECTID": "10",
        "NAME": "Dyke Road",
        "TYPE": "Pay/Surface Carpark",
        "NO_SPACES": "510",
        "Lat": "53.279",
        "Long": "-9.051",
        "EastITM": "529896.241",
        "NorthITM": "725880.965",
        "EastIG": "129930.341",
        "NorthIG": "225851.928"
    },
    {
        "X": "-9.054235838671511",
        "Y": "53.273851566152011",
        "OBJECTID": "11",
        "NAME": "Bowling Green",
        "TYPE": "Pay/Surface Carpark (short stay)",
        "NO_SPACES": "40",
        "Lat": "53.274",
        "Long": "-9.055",
        "EastITM": "529644.128",
        "NorthITM": "725381.091",
        "EastIG": "129678.175",
        "NorthIG": "225351.945"
    },
    {
        "X": "-9.057652301183115",
        "Y": "53.271078228829353",
        "OBJECTID": "12",
        "NAME": "Mill St",
        "TYPE": "Pay/Surface Carpark (short stay)",
        "NO_SPACES": "82",
        "Lat": "53.271",
        "Long": "-9.058",
        "EastITM": "529411.726",
        "NorthITM": "725075.918",
        "EastIG": "129445.724",
        "NorthIG": "225046.705"
    },
    {
        "X": "-9.073338410299071",
        "Y": "53.259609833567403",
        "OBJECTID": "13",
        "NAME": "Salthill",
        "TYPE": "Surface Carpark (free parking)",
        "NO_SPACES": " ",
        "Lat": "53.26",
        "Long": "-9.074",
        "EastITM": "528346.431",
        "NorthITM": "723815.637",
        "EastIG": "128380.202",
        "NorthIG": "223786.148"
    },
    {
        "X": "-9.076039760436448",
        "Y": "53.259010763215024",
        "OBJECTID": "14",
        "NAME": "Salthill",
        "TYPE": "Surface Carpark (free parking)",
        "NO_SPACES": " ",
        "Lat": "53.259",
        "Long": "-9.077",
        "EastITM": "528165.221",
        "NorthITM": "723751.7",
        "EastIG": "128198.954",
        "NorthIG": "223722.195"
    },
    {
        "X": "-9.047384993904027",
        "Y": "53.270284114838475",
        "OBJECTID": "15",
        "NAME": "Harbour Hotel",
        "TYPE": "Multistorey Carpark",
        "NO_SPACES": "114",
        "Lat": "53.271",
        "Long": "-9.048",
        "EastITM": "530095.177",
        "NorthITM": "724977.485",
        "EastIG": "130129.323",
        "NorthIG": "224948.254"
    },
    {
        "X": "-9.049999320469533",
        "Y": "53.271260240018094",
        "OBJECTID": "16",
        "NAME": "Eyre Square Centre",
        "TYPE": "Multistorey Carpark",
        "NO_SPACES": "480",
        "Lat": "53.271",
        "Long": "-9.051",
        "EastITM": "529922.415",
        "NorthITM": "725088.64",
        "EastIG": "129956.523",
        "NorthIG": "225059.432"
    },
    {
        "X": "-9.050677412078851",
        "Y": "53.270637163453195",
        "OBJECTID": "17",
        "NAME": "Hynes Yard",
        "TYPE": "Multistorey Carpark",
        "NO_SPACES": "114",
        "Lat": "53.271",
        "Long": "-9.051",
        "EastITM": "529876.173",
        "NorthITM": "725019.986",
        "EastIG": "129910.271",
        "NorthIG": "224990.764"
    },
    {
        "X": ""
    }
]